{"pageProps":{"villages":[{"Association":"BANGA AMIA VILLAGE FARMER ASSOCIATION","lon":"122.353472","Municipality":"Banga","Province":"Aklan","Barangay":"Muguing","lat":"11.639994"},{"lon":"122.344193","lat":"11.643202","Municipality":"Banga","Association":"BANGA AMIA VILLAGE FARMER ASSOCIATION","Barangay":"Mambog","Province":"Aklan"},{"lon":"122.345245","Association":"BANGA AMIA VILLAGE FARMER ASSOCIATION","lat":"11.657256","Barangay":"Linabuan Sur","Province":"Aklan","Municipality":"Banga"},{"Province":"Aklan","lat":"11.586788","lon":"122.350678","Municipality":"Banga","Barangay":"San Isidro","Association":"BANGA AMIA VILLAGE FARMER ASSOCIATION"},{"Province":"Aklan","lat":"11.554845","lon":"122.518274","Barangay":"Palay","Municipality":"Batan","Association":"BATAN AMIA VILLAGE FARMER ASSOCIATION"},{"Municipality":"Batan","Province":"Aklan","Association":"BATAN AMIA VILLAGE FARMER ASSOCIATION","lat":"11.574515","Barangay":"Ambolong","lon":"122.506069"},{"Association":"NUMANCIA AMIA VILLAGE FARMER ASSOCIATION","lon":"122.343327","Province":"Aklan","Barangay":"Bubog","lat":"11.717283","Municipality":"Numancia"},{"Association":"NUMANCIA AMIA VILLAGE FARMER ASSOCIATION","Province":"Aklan","Municipality":"Numancia","lon":"122.342576","Barangay":"Aliputos","lat":"11.697203"},{"lon":"122.338801","Municipality":"Numancia","Province":"Aklan","Association":"NUMANCIA AMIA VILLAGE FARMER ASSOCIATION","lat":"11.707427","Barangay":"Laguinbanwa West "},{"Barangay":"Takas","lat":"11.000784","Municipality":"Valderrama","lon":"122.13762","Province":"Antique","Association":"UGWAD VALDERRAMA AMIA VILLAGE FARMER ASSOCIATION"},{"Barangay":"Ubos ","Association":"UGWAD VALDERRAMA AMIA VILLAGE FARMER ASSOCIATION","lat":"11.01075","Municipality":"Valderrama","Province":"Antique","lon":"122.133587"},{"Barangay":"Buluangan 1","lat":"11.011314","lon":"122.119677","Province":"Antique","Association":"UGWAD VALDERRAMA AMIA VILLAGE FARMER ASSOCIATION","Municipality":"Valderrama"},{"Province":"Antique","lat":"10.759165","Barangay":"Bontol ","Municipality":"Sibalom","lon":"122.089734","Association":"UNITED SIBALOM AMIA VILLAGE FARMER ASSOCIATION"},{"lon":"122.062941","Province":"Antique","Municipality":"Sibalom","lat":"10.772198","Barangay":"Pis-anan","Association":"UNITED SIBALOM AMIA VILLAGE FARMER ASSOCIATION"},{"Municipality":"Anini-y","lat":"10.417238","Province":"Antique","Barangay":"Salvacion","Association":"MASAGANA ANINI-Y AMIA VILLAGE FARMER ASSOCIATION","lon":"121.955071"},{"Province":"Antique","Municipality":"Anini-y","lat":"10.425415","lon":"121.976759","Association":"MASAGANA ANINI-Y AMIA VILLAGE FARMER ASSOCIATION","Barangay":"Magdalena "},{"Association":"MASAGANA ANINI-Y AMIA VILLAGE FARMER ASSOCIATION","lon":"121.935344","Province":"Antique","Barangay":"Nato-Butuan","Municipality":"Anini-y","lat":"10.426631"},{"Municipality":"Anini-y","Barangay":"San Roque","Province":"Antique","lon":"121.964829","lat":"10.416472","Association":"MASAGANA ANINI-Y AMIA VILLAGE FARMER ASSOCIATION"},{"Municipality":"Pontevedra","Barangay":"San Pedro","lat":"11.43157","lon":"122.858152","Association":"BINUJOSAN FARMER ASSOCIATION","Province":"Capiz"},{"Municipality":"Pontevedra","Association":"BINUJOSAN FARMER ASSOCIATION","lat":"11.411915","lon":"122.866161","Province":"Capiz","Barangay":"Binuntucan"},{"Association":"BINUJOSAN FARMER ASSOCIATION","lon":"122.846382","Municipality":"Pontevedra","Barangay":"Jolongajog","lat":"11.422279","Province":"Capiz"},{"Barangay":"Guba","Province":"Capiz","Municipality":"Pontevedra","lat":"11.486581","Association":"BINUJOSAN FARMER ASSOCIATION","lon":"122.818061"},{"lat":"11.304913","Municipality":"Cuartero","Province":"Capiz","Barangay":"Mainit","lon":"122.753941","Association":"BRGY. MAINIT FARMER ASSOCIATION"},{"Association":"CALA-AN AMIA VILLAGE FARMER ASSOCIATION","Barangay":"Cala-an","Province":"Capiz","Municipality":"Panitan","lat":"11.423174","lon":"122.748"},{"lat":"11.409987","Municipality":"Dao","Province":"Capiz","Barangay":"Duyoc","Association":"DUYOC-LACARON AMIA VILLAGE FARMER ASSOCIATION","lon":"122.707358"},{"Province":"Capiz","Barangay":"Lacaron","lon":"122.735668","Association":"DUYOC-LACARON AMIA VILLAGE FARMER ASSOCIATION","Municipality":"Dao","lat":"11.411674"},{"lat":"10.501567","Municipality":"Sibunag","Province":"Guimaras","Association":"BUSESA FARMER ASSOCIATION","lon":"122.656302","Barangay":"Bubog"},{"Association":"BUSESA FARMER ASSOCIATION","Municipality":"Sibunag","lat":"10.513509","Barangay":"Sebaste","lon":"122.664585","Province":"Guimaras"},{"Association":"BUSESA FARMER ASSOCIATION","Province":"Guimaras","lat":"10.491522","Municipality":"Sibunag","lon":"122.645057","Barangay":"Sabang"},{"Barangay":"M. Chavez","Association":"SAN LORENZO AMIA VILLAGE FARMER ASSOCIATION","Municipality":"San Lorenzo","lon":"122.697801","Province":"Guimaras","lat":"10.61206"},{"lon":"122.679047","Barangay":"Igcawayan","Association":"SAN LORENZO AMIA VILLAGE FARMER ASSOCIATION","Province":"Guimaras","Municipality":"San Lorenzo","lat":"10.546967"},{"Barangay":"Cabano","lon":"122.681535","Association":"SAN LORENZO AMIA VILLAGE FARMER ASSOCIATION","Province":"Guimaras","lat":"10.57966","Municipality":"San Lorenzo"},{"Association":"ABANTE BANATE AMIA VILLAGE FARMER ASSOCIATION","lat":"11.031216","Barangay":"Libertad","Municipality":"Banate","Province":"Iloilo","lon":"122.798606"},{"Municipality":"Banate","lat":"11.027144","Barangay":"Merced","Association":"ABANTE BANATE AMIA VILLAGE FARMER ASSOCIATION","lon":"122.821601","Province":"Iloilo"},{"lat":"11.012964","Municipality":"Banate","Barangay":"Carmelo","lon":"122.815311","Province":"Iloilo","Association":"ABANTE BANATE AMIA VILLAGE FARMER ASSOCIATION"},{"lon":"123.119981","lat":"11.458866","Association":"ESTANACIA AMIA VILLAGE FARMER ASSOCIATION","Municipality":"Estancia","Barangay":"Tabuan","Province":"Iloilo"},{"Municipality":"Estancia","lat":"11.45861","Province":"Iloilo","Barangay":"Cano-an","lon":"123.130665","Association":"ESTANACIA AMIA VILLAGE FARMER ASSOCIATION"},{"Municipality":"Estancia","lon":"123.121443","Barangay":"Lonoy","Province":"Iloilo","lat":"11.449245","Association":"ESTANACIA AMIA VILLAGE FARMER ASSOCIATION"},{"Province":"Iloilo","Barangay":"Poblacion","lat":"11.182452","lon":"122.829505","Association":"SANYOG SAN RAFAEL AMIA VILLAGE FARMER ASSOCIATION","Municipality":"San Rafael"},{"lon":"122.795276","lat":"11.169274","Barangay":"San Andres","Municipality":"San Rafael","Association":"SANYOG SAN RAFAEL AMIA VILLAGE FARMER ASSOCIATION","Province":"Iloilo"},{"Province":"Iloilo","Municipality":"San Rafael","lat":"11.14453","Association":"SANYOG SAN RAFAEL AMIA VILLAGE FARMER ASSOCIATION","Barangay":"Ilongbukid","lon":"122.83173"},{"Province":"Iloilo","Barangay":"Quinangyana","Municipality":"Bingawan","lon":"122.597887","lat":"11.246033","Association":"HATAW BINGAWAN AMIA VILLAGE FARMER ASSOCIATION"},{"Association":"HATAW BINGAWAN AMIA VILLAGE FARMER ASSOCIATION","Municipality":"Bingawan","Barangay":"Quinar-upan","Province":"Iloilo","lon":"122.572297","lat":"11.191564"},{"Barangay":"Poblacion","Association":"HATAW BINGAWAN AMIA VILLAGE FARMER ASSOCIATION","lon":"122.57012","lat":"11.226967","Province":"Iloilo","Municipality":"Bingawan"},{"Province":"Iloilo","Municipality":"Bingawan","lat":"11.21598","Barangay":"Alabidhan","Association":"HATAW BINGAWAN AMIA VILLAGE FARMER ASSOCIATION","lon":"122.585925"},{"lon":"122.899711","Barangay":"San Isidro","Municipality":"Pontevedra","lat":"10.330534","Province":"Negros Occidental","Association":"AMIA VILLAGE ORGANIC FARMER ASSOCIATION"},{"lat":"10.332178","Municipality":"Pontevedra","lon":"122.878043","Barangay":"M.H del Pilar","Province":"Negros Occidental","Association":"AMIA VILLAGE ORGANIC FARMER ASSOCIATION"},{"lat":"10.89713","Barangay":"Rizal","lon":"123.415158","Province":"Negros Occidental","Municipality":"Sagay City","Association":"MENAKALAW FARMER ASSOCIATION"},{"Province":"Negros Occidental","Municipality":"Cauayan","Association":"CAUAYAN AMIA VILLAGE FARMER ASSOCIATIONRMERS AND FISHERFOLKS PRODUCERS COOPERATIVE","Barangay":"Masaling ","lat":"9.970433","lon":"122.522247"},{"Municipality":"Valladolid","Province":"Negros Occidental","lon":"122.832193","lat":"10.466739","Association":"BRGY. PALOMA FARMER ASSOCIATION","Barangay":"Paloma"},{"Municipality":"Toboso","Province":"Negros Occidental","Association":"MATUGA FARMER ASSOCIATION","lon":"123.479184","lat":"10.710235","Barangay":"Tabun-ac"}],"provincesMunicipalities":[{"disabled":false,"municipalities":[{"label":"Altavas","disabled":false,"id":0},{"label":"Balete","id":1,"disabled":false},{"label":"Banga","disabled":false,"id":2},{"disabled":false,"id":3,"label":"Batan"},{"label":"Buruanga","disabled":false,"id":4},{"id":5,"label":"Ibajay","disabled":false},{"disabled":false,"label":"Kalibo","id":6},{"label":"Lezo","disabled":false,"id":7},{"label":"Libacao","id":8,"disabled":false},{"disabled":false,"label":"Madalag","id":9},{"label":"Makato","id":10,"disabled":false},{"disabled":false,"id":11,"label":"Malay"},{"disabled":false,"label":"Malinao","id":12},{"id":13,"label":"Nabas","disabled":false},{"label":"New Washington","id":14,"disabled":false},{"disabled":false,"label":"Numancia","id":15},{"id":16,"disabled":false,"label":"Tangalan"}],"id":0,"label":"Aklan"},{"disabled":false,"municipalities":[{"id":0,"label":"Anini-Y","disabled":false},{"id":1,"label":"Barbaza","disabled":false},{"label":"Belison","disabled":false,"id":2},{"disabled":false,"id":3,"label":"Bugasong"},{"label":"Caluya","disabled":false,"id":4},{"id":5,"label":"Culasi","disabled":false},{"id":6,"label":"Hamtic","disabled":false},{"id":7,"disabled":false,"label":"Laua-An"},{"disabled":false,"id":8,"label":"Libertad"},{"label":"Pandan","id":9,"disabled":false},{"id":10,"disabled":false,"label":"Patnongon"},{"label":"San Jose","id":11,"disabled":false},{"disabled":false,"id":12,"label":"San Remigio"},{"label":"Sebaste","disabled":false,"id":13},{"id":14,"label":"Sibalom","disabled":false},{"id":15,"disabled":false,"label":"Tibiao"},{"label":"Tobias Fornier","id":16,"disabled":false},{"id":17,"disabled":false,"label":"Valderrama"}],"label":"Antique","id":1},{"id":2,"municipalities":[{"id":0,"label":"Cuartero","disabled":false},{"label":"Dao","id":1,"disabled":false},{"id":2,"label":"Dumalag","disabled":false},{"label":"Dumarao","disabled":false,"id":3},{"id":4,"disabled":false,"label":"Ivisan"},{"disabled":false,"id":5,"label":"Jamindan"},{"disabled":false,"label":"Ma-Ayon","id":6},{"id":7,"disabled":false,"label":"Mambusao"},{"label":"Panay","disabled":false,"id":8},{"label":"Panitan","disabled":false,"id":9},{"label":"Pilar","id":10,"disabled":false},{"label":"Pontevedra","disabled":false,"id":11},{"id":12,"label":"President Roxas","disabled":false},{"label":"Roxas City","disabled":false,"id":13},{"disabled":false,"label":"Sapi-An","id":14},{"disabled":false,"label":"Sigma","id":15},{"label":"Tapaz","id":16,"disabled":false}],"label":"Capiz","disabled":false},{"id":3,"municipalities":[{"id":0,"label":"Buenavista","disabled":false},{"id":1,"disabled":false,"label":"Jordan"},{"id":2,"label":"Nueva Valencia","disabled":false},{"id":3,"disabled":false,"label":"San Lorenzo"},{"label":"Sibunag","id":4,"disabled":false}],"label":"Guimaras","disabled":false},{"disabled":false,"id":4,"label":"Iloilo","municipalities":[{"label":"Ajuy","disabled":false,"id":0},{"label":"Alimodian","id":1,"disabled":false},{"label":"Anilao","disabled":false,"id":2},{"id":3,"label":"Badiangan","disabled":false},{"label":"Balasan","id":4,"disabled":false},{"disabled":false,"label":"Banate","id":5},{"id":6,"label":"Barotac Nuevo","disabled":false},{"disabled":true,"id":7,"label":"Barotac Viejo"},{"id":8,"label":"Batad","disabled":false},{"disabled":false,"id":9,"label":"Bingawan"},{"id":10,"label":"Cabatuan","disabled":false},{"label":"Calinog","id":11,"disabled":false},{"label":"Carles","id":12,"disabled":false},{"label":"Concepcion","id":13,"disabled":false},{"id":14,"disabled":false,"label":"Dingle"},{"label":"Duenas","id":15,"disabled":true},{"label":"Dumangas","disabled":false,"id":16},{"id":17,"disabled":false,"label":"Estancia"},{"disabled":false,"id":18,"label":"Guimbal"},{"label":"Igbaras","disabled":false,"id":19},{"label":"Iloilo City","disabled":false,"id":20},{"disabled":false,"id":21,"label":"Janiuay"},{"label":"Lambunao","disabled":false,"id":22},{"disabled":false,"label":"Leganes","id":23},{"label":"Lemery","disabled":false,"id":24},{"id":25,"label":"Leon","disabled":false},{"id":26,"disabled":false,"label":"Maasin"},{"id":27,"disabled":false,"label":"Miagao"},{"label":"Mina","disabled":false,"id":28},{"id":29,"label":"New Lucena","disabled":false},{"disabled":false,"id":30,"label":"Oton"},{"disabled":false,"id":31,"label":"Passi City"},{"disabled":false,"label":"Pavia","id":32},{"disabled":false,"id":33,"label":"Pototan"},{"id":34,"label":"San Dionisio","disabled":false},{"id":35,"disabled":false,"label":"San Enrique"},{"disabled":false,"id":36,"label":"San Joaquin"},{"disabled":false,"id":37,"label":"San Miguel"},{"label":"San Rafael","id":38,"disabled":false},{"disabled":false,"id":39,"label":"Santa Barbara"},{"label":"Sara","disabled":false,"id":40},{"disabled":false,"id":41,"label":"Tigbauan"},{"disabled":false,"label":"Tubungan","id":42},{"disabled":false,"label":"Zarraga","id":43},{"label":"Barotace Viejo","iscalendar":true,"id":44,"disabled":false},{"disabled":false,"label":"Due√±as","id":45,"iscalendar":true}]},{"disabled":false,"municipalities":[{"disabled":false,"label":"Bacolod City","id":0},{"id":1,"disabled":false,"label":"Bago City"},{"label":"Binalbagan","disabled":false,"id":2},{"disabled":false,"label":"Cadiz City","id":3},{"disabled":false,"id":4,"label":"Calatrava"},{"disabled":false,"label":"Candoni","id":5},{"disabled":false,"label":"Cauayan","id":6},{"disabled":false,"label":"Enrique B. Magalona","id":7},{"disabled":false,"id":8,"label":"Escalante City"},{"disabled":false,"id":9,"label":"Himamaylan City"},{"disabled":false,"id":10,"label":"Hinigaran"},{"disabled":false,"label":"Hinoba-An","id":11},{"id":12,"label":"Ilog","disabled":false},{"label":"Isabela","disabled":false,"id":13},{"id":14,"label":"Kabankalan City","disabled":false},{"label":"La Carlota City","disabled":false,"id":15},{"label":"La Castellana","id":16,"disabled":false},{"id":17,"label":"Manapla","disabled":false},{"disabled":false,"id":18,"label":"Moises Padilla"},{"disabled":false,"id":19,"label":"Murcia"},{"label":"Pontevedra","disabled":false,"id":20},{"label":"Pulupandan","disabled":false,"id":21},{"disabled":false,"id":22,"label":"Sagay City"},{"id":23,"label":"Salvador Benedicto","disabled":false},{"id":24,"disabled":false,"label":"San Carlos City"},{"id":25,"label":"San Enrique","disabled":false},{"id":26,"disabled":false,"label":"Silay City"},{"id":27,"label":"Sipalay City","disabled":false},{"disabled":false,"id":28,"label":"Talisay City"},{"label":"Toboso","id":29,"disabled":false},{"disabled":false,"label":"Valladolid","id":30},{"label":"Victorias City","id":31,"disabled":false}],"label":"Negros Occidental","id":5}],"media":{"description":"","url":"","path":"http://localhost:3001"}},"__N_SSG":true}